{
  "pins": [
    {
      "name": "勝光登山口",
      "lat": 24.3731,
      "lng": 121.4014
    },
    {
      "name": "大水池登山口",
      "lat": 24.3723,
      "lng": 121.4119
    },
    {
      "name": "5.3K岔路口",
      "lat": 24.3686,
      "lng": 121.4248
    },
    {
      "name": "8.0K松風嶺",
      "lat": 24.3653,
      "lng": 121.4366
    },
    {
      "name": "木杆鞍部",
      "lat": 24.3566,
      "lng": 121.4547
    },
    {
      "name": "南湖溪山屋",
      "lat": 24.3534,
      "lng": 121.4679
    },
    {
      "name": "香菇寮營地",
      "lat": 24.3514,
      "lng": 121.5097
    }
  ]
}