{
  "pins": [
    {
      "name": "勝光登山口",
      "lat": 24.372681,
      "lng": 121.344573
    },
    {
      "name": "大水池登山口",
      "lat": 24.374728,
      "lng": 121.352304
    },
    {
      "name": "5.3K岔路口",
      "lat": 24.372469,
      "lng": 121.365729
    },
    {
      "name": "松風嶺8.0K",
      "lat": 24.369071,
      "lng": 121.383761
    },
    {
      "name": "木杆鞍部",
      "lat": 24.370011,
      "lng": 121.397066
    },
    {
      "name": "南湖溪山屋",
      "lat": 24.370193,
      "lng": 121.397087
    },
    {
      "name": "香菇寮營地",
      "lat": 24.34689,
      "lng": 121.40653
    }
  ]
}