{
  "pins": [
    {
      "name": "勝光登山口",
      "lat": 24.36992,
      "lng": 121.34057
    },
    
    {
      "name": "大水池登山口",
      "lat": 24.3725291,
      "lng": 121.3445859
    },
    {
          "name": "710林道4.8K",
    "lat": 24.3749240,
    "lng": 121.3519483
    },
    {
          "name": "松風嶺8.0K",
    "lat": 24.3713778,
    "lng": 121.3703142
    },
    {
      "name": "木杆鞍部",
      "lat": 24.3761078,
      "lng": 121.3929131
    },
    {
      "name": "南湖溪山屋",
      "lat": 24.3703225,
      "lng": 121.3970004
    },
    {
      "name": "香菇寮營地",
      "lat": 24.3436971,
      "lng": 121.4065169
    }
  ]
}